[
  {
    "Nome": "USF Coque/ Dr. Berilo Pernambucano",
    "Endereço": "R. Guapirama, 65",
    "Bairro": "Ilha Joana Bezerra",
    "Cidade": "Recife",
    "Estado": "PE",
    "Latitude": -8.068888,
    "Longitude": -34.899863,
    "Horário": "Seg-Sex: 08:00-17:00",
    "Telefone": "+55 81 3355-4656"
  },
  {
    "Nome": "USF São José do Coque",
    "Endereço": "Av. Central, 10",
    "Bairro": "Ilha Joana Bezerra",
    "Cidade": "Recife",
    "Estado": "PE",
    "Latitude": -8.069509,
    "Longitude": -34.901663,
    "Horário": "Ter e Qui: 08:00-16:00",
    "Telefone": "+55 81 3232-2221"
  },
  {
    "Nome": "Policlínica Centro",
    "Endereço": "R. 1º de Março, 90",
    "Bairro": "Santo Antônio",
    "Cidade": "Recife",
    "Estado": "PE",
    "Latitude": -8.063336,
    "Longitude": -34.875838,
    "Horário": "Seg-Sex: 07:00-17:00",
    "Telefone": null
  },
  {
    "Nome": "USF Santo Amaro I / Sítio do Céu",
    "Endereço": "R. Anchieta, 520",
    "Bairro": "Santo Amaro",
    "Cidade": "Recife",
    "Estado": "PE",
    "Latitude": -8.056709,
    "Longitude": -34.885873,
    "Horário": "Seg-Sex: 07:00-17:00",
    "Telefone": "+55 81 3355-4704"
  },
  {
    "Nome": "USF Santo Amaro III",
    "Endereço": "Av. Norte Miguel Arraes de Alencar, 1271",
    "Bairro": "Santo Amaro",
    "Cidade": "Recife",
    "Estado": "PE",
    "Latitude": -8.054193,
    "Longitude": -34.881887,
    "Horário": "Seg-Sex: 07:00-17:00",
    "Telefone": null
  },
  {
    "Nome": "USF Ilha Santa Terezinha",
    "Endereço": "R. Artemis, 9",
    "Bairro": "Santo Amaro",
    "Cidade": "Recife",
    "Estado": "PE",
    "Latitude": -8.057979,
    "Longitude": -34.884649,
    "Horário": null,
    "Telefone": "+55 81 3355-1526"
  },
  {
    "Nome": "Upinha Nossa Senhora do Pilar",
    "Endereço": "R. do Brum",
    "Bairro": "Recife",
    "Cidade": "Recife",
    "Estado": "PE",
    "Latitude": -8.057849,
    "Longitude": -34.881313,
    "Horário": "Seg-Sex: 08:30-17:00",
    "Telefone": "+55 81 3224-3628"
  },
  {
    "Nome": "Policlínica Gouveia de Barros",
    "Endereço": "Largo da Santa Cruz, s/n",
    "Bairro": "Boa Vista",
    "Cidade": "Recife",
    "Estado": "PE",
    "Latitude": -8.053781,
    "Longitude": -34.889048,
    "Horário": null,
    "Telefone": null
  },
  {
    "Nome": "Upinha Dra. Fernanda Wanderley",
    "Endereço": "R. Uriel de Holanda, 300",
    "Bairro": "Linha do Tiro",
    "Cidade": "Recife",
    "Estado": "PE",
    "Latitude": -8.015885,
    "Longitude": -34.918036,
    "Horário": "Seg-Sex: 07:00-19:00",
    "Telefone": null
  },
  {
    "Nome": "USF Dr. Luiz Wilson – 3º Turno",
    "Endereço": "R. Chã de Alegria",
    "Bairro": "Bomba do Hemetério",
    "Cidade": "Recife",
    "Estado": "PE",
    "Latitude": -8.007961,
    "Longitude": -34.914776,
    "Horário": "Seg-Sex: 07:00-17:00",
    "Telefone": null
  },
  {
    "Nome": "USF Alto do Céu / Porto da Madeira",
    "Endereço": "R. Cap. Salgueiro, 267",
    "Bairro": "Porto da Madeira",
    "Cidade": "Recife",
    "Estado": "PE",
    "Latitude": -8.039789,
    "Longitude": -34.869769,
    "Horário": "Seg-Sex: 08:00-16:00",
    "Telefone": "+55 81 3355-6206"
  },
  {
    "Nome": "Upinha Governador Eduardo Campos",
    "Endereço": "R. Jacob, 162",
    "Bairro": "Bomba do Hemetério",
    "Cidade": "Recife",
    "Estado": "PE",
    "Latitude": -8.013557,
    "Longitude": -34.921354,
    "Horário": "Seg-Sex: 07:00-18:00",
    "Telefone": null
  },
  {
    "Nome": "Upinha Chié I e II",
    "Endereço": "Av. Gov. Agamenon Magalhães, s/n",
    "Bairro": "Campo Grande",
    "Cidade": "Recife",
    "Estado": "PE",
    "Latitude": -8.036273,
    "Longitude": -34.904313,
    "Horário": "Seg-Sex: 07:00-17:00",
    "Telefone": "+55 81 3355-6430"
  },
  {
    "Nome": "USF Alto do Pascoal",
    "Endereço": "Av. Aníbal Benévolo, S/N",
    "Bairro": "Alto Sta Terezinha",
    "Cidade": "Recife",
    "Estado": "PE",
    "Latitude": -8.020582,
    "Longitude": -34.917352,
    "Horário": "Seg-Sex: 07:00-19:00",
    "Telefone": null
  },
  {
    "Nome": "USF Tia Regina / Corrego do Deodato – 3º Turno",
    "Endereço": "R. Córrego do Deodato, 315",
    "Bairro": "Água Fria",
    "Cidade": "Recife",
    "Estado": "PE",
    "Latitude": -8.016599,
    "Longitude": -34.909894,
    "Horário": "Seg-Qui: 08:00-16:00; Sex: Fechado",
    "Telefone": null
  },
  {
    "Nome": "USF Professor Antônio Francisco Areias",
    "Endereço": "Av. Prof. José dos Anjos, 506",
    "Bairro": "Campo Grande",
    "Cidade": "Recife",
    "Estado": "PE",
    "Latitude": -8.031487,
    "Longitude": -34.902987,
    "Horário": null,
    "Telefone": null
  },
  {
    "Nome": "USF Alto do Capitão",
    "Endereço": "Rua Tupiraçaba",
    "Bairro": "Dois Unidos",
    "Cidade": "Recife",
    "Estado": "PE",
    "Latitude": -7.999976,
    "Longitude": -34.923158,
    "Horário": "Seg-Sex: 08:00-12:00, 13:30-17:30",
    "Telefone": "+55 81 3232-4190"
  },
  {
    "Nome": "USF Byron Sarinho II",
    "Endereço": "R. Nazaré, 293",
    "Bairro": "Água Fria",
    "Cidade": "Recife",
    "Estado": "PE",
    "Latitude": -8.013699,
    "Longitude": -34.905912,
    "Horário": "Seg-Sex: 07:30-12:00, 13:00-16:30",
    "Telefone": "+55 81 3355-6510"
  },
  {
    "Nome": "USF Chão de Estrela I, II e III",
    "Endereço": "R. Dr. Elias Gomes, 65",
    "Bairro": "Peixinhos",
    "Cidade": "Recife",
    "Estado": "PE",
    "Latitude": -7.998432,
    "Longitude": -34.871671,
    "Horário": "Seg-Sex: 09:00-17:00",
    "Telefone": "+55 81 3355-6694"
  },
  {
    "Nome": "USF Irmã Terezinha I e II",
    "Endereço": "R. Consolação, 9",
    "Bairro": "Campina do Barreto",
    "Cidade": "Recife",
    "Estado": "PE",
    "Latitude": -8.050443,
    "Longitude": -34.893384,
    "Horário": "Seg-Sex: 08:00-16:00",
    "Telefone": "+55 81 3355-6154"
  },
  {
    "Nome": "USF Alto dos Coqueiros – 3º Turno",
    "Endereço": "R. Córrego da Jaqueira, 160",
    "Bairro": "Linha do Tiro",
    "Cidade": "Recife",
    "Estado": "PE",
    "Latitude": -8.014045,
    "Longitude": -34.916028,
    "Horário": "Seg-Sex: 07:30-17:00",
    "Telefone": null
  },
  {
    "Nome": "USF Professor Monteiro de Morais – 3º Turno",
    "Endereço": "Av. Beberibe, 4510",
    "Bairro": "Beberibe",
    "Cidade": "Recife",
    "Estado": "PE",
    "Latitude": -8.025826,
    "Longitude": -34.885648,
    "Horário": "Seg-Sex: 06:00-17:00",
    "Telefone": null
  },
  {
    "Nome": "Policlínica Salomão Kelner",
    "Endereço": "Estr. Velha de Água Fria",
    "Bairro": "Tamarineira",
    "Cidade": "Recife",
    "Estado": "PE",
    "Latitude": -8.033791,
    "Longitude": -34.909077,
    "Horário": null,
    "Telefone": "+55 81 3355-9929"
  },
  {
    "Nome": "CS Professor Mário Ramos",
    "Endereço": "Rua Oscár de Barros, 175",
    "Bairro": "Casa Amarela",
    "Cidade": "Recife",
    "Estado": "PE",
    "Latitude": -8.028875,
    "Longitude": -34.919255,
    "Horário": "Seg-Sex: 07:00-12:00, 13:00-16:00",
    "Telefone": "+55 81 3355-4434"
  },
  {
    "Nome": "CS Joaquim Costa Carvalho",
    "Endereço": "Rua Siriji",
    "Bairro": "Alto do Mandu",
    "Cidade": "Recife",
    "Estado": "PE",
    "Latitude": -8.028591,
    "Longitude": -34.927588,
    "Horário": "Seg-Sex: 08:00-17:00",
    "Telefone": null
  },
  {
    "Nome": "USF Apipucos",
    "Endereço": "Rua Cel. João Batista do Rêgo Barros, 56",
    "Bairro": "Apipucos",
    "Cidade": "Recife",
    "Estado": "PE",
    "Latitude": -8.026228,
    "Longitude": -34.941188,
    "Horário": "Seg-Sex: 08:00-16:00",
    "Telefone": null
  },
  {
    "Nome": "USF Sítio dos Pintos",
    "Endereço": "Rua Pref. Agostinho Nunes Machado, 26",
    "Bairro": "Sítio dos Pintos",
    "Cidade": "Recife",
    "Estado": "PE",
    "Latitude": -8.006671,
    "Longitude": -34.934083,
    "Horário": null,
    "Telefone": null
  },
  {
    "Nome": "USF Sítio dos Pintos",
    "Endereço": "Rua Pref. Agostinho Nunes Machado, 16-134",
    "Bairro": "Sítio dos Pintos",
    "Cidade": "Recife",
    "Estado": "PE",
    "Latitude": -8.007143,
    "Longitude": -34.934283,
    "Horário": "Seg-Sex: 08:00-17:00",
    "Telefone": null
  },
  {
    "Nome": "Policlínica Albert Sabin",
    "Endereço": "Rua Padre Roma, 191",
    "Bairro": "Tamarineira",
    "Cidade": "Recife",
    "Estado": "PE",
    "Latitude": -8.032896,
    "Longitude": -34.905254,
    "Horário": "Seg-Sex: 07:00-16:30",
    "Telefone": "+55 81 3355-2750"
  },
  {
    "Nome": "USF Poço da Panela",
    "Endereço": "Rua Eng. Jaír Furtado Meireles, 321",
    "Bairro": "Poço da Panela",
    "Cidade": "Recife",
    "Estado": "PE",
    "Latitude": -8.038359,
    "Longitude": -34.935923,
    "Horário": "Seg-Sex: 07:00-17:00; Sex até 16:00",
    "Telefone": "+55 81 3266-5538"
  },
  {
    "Nome": "USF Poço da Panela",
    "Endereço": "Rua Siriji, s/n",
    "Bairro": "Alto do Mandu",
    "Cidade": "Recife",
    "Estado": "PE",
    "Latitude": -8.028591,
    "Longitude": -34.927588,
    "Horário": "Seg-Sex: 07:00-19:00",
    "Telefone": "+55 81 98526-9068"
  },
  {
    "Nome": "USF Poço da Panela",
    "Endereço": "Rua Vale Verde, 36",
    "Bairro": "Sucupira",
    "Cidade": "Recife",
    "Estado": "PE",
    "Latitude": -8.076896,
    "Longitude": -34.964476,
    "Horário": "Seg-Sex: 07:00-17:00",
    "Telefone": "+55 81 3251-8797"
  },
  {
    "Nome": "USF Poço da Panela",
    "Endereço": "Avenida Aníbal Benévolo, S/N",
    "Bairro": "Alto Sta Terezinha",
    "Cidade": "Recife",
    "Estado": "PE",
    "Latitude": -8.020582,
    "Longitude": -34.917352,
    "Horário": "Seg-Sex: 07:00-19:00",
    "Telefone": null
  },
  {
    "Nome": "USF Poço da Panela",
    "Endereço": "Rua Ramiz Galvão, 379",
    "Bairro": "Arruda",
    "Cidade": "Recife",
    "Estado": "PE",
    "Latitude": -8.030992,
    "Longitude": -34.900782,
    "Horário": "Seg-Sex: 07:30-12:00, 13:30-16:30",
    "Telefone": null
  },
  {
    "Nome": "USF Santana",
    "Endereço": "r Olegarina da Cunha, 333",
    "Bairro": "Santana",
    "Cidade": "Recife",
    "Estado": "PE",
    "Latitude": -8.032779,
    "Longitude": -34.908036,
    "Horário": null,
    "Telefone": "+55 81 3355-6222"
  },
  {
    "Nome": "USF União das Vilas",
    "Endereço": "Avenida Gov. Agamenon Magalhães, 2901",
    "Bairro": "Santo Amaro",
    "Cidade": "Recife",
    "Estado": "PE",
    "Latitude": -8.050857,
    "Longitude": -34.883613,
    "Horário": "Seg-Sex: 07:00-19:00",
    "Telefone": "+55 81 3355-6135"
  },
  {
    "Nome": "USF Sítio São Braz",
    "Endereço": "Tv. 3 Sítio São Braz, 60",
    "Bairro": "Sítio dos Pintos",
    "Cidade": "Recife",
    "Estado": "PE",
    "Latitude": -8.009003,
    "Longitude": -34.935883,
    "Horário": "Seg-Sex: 08:00-16:00",
    "Telefone": null
  },
  {
    "Nome": "USF Sítio São Braz",
    "Endereço": "Rua do Sítio São Brás, 86",
    "Bairro": "Sítio dos Pintos",
    "Cidade": "Camaragibe",
    "Estado": "PE",
    "Latitude": -8.009894,
    "Longitude": -34.936184,
    "Horário": "Seg-Sex: 06:00-16:00",
    "Telefone": null
  },
  {
    "Nome": "CS Francisco Pignatari",
    "Endereço": "Estrada do Arraial, 4155",
    "Bairro": "Casa Amarela",
    "Cidade": "Recife",
    "Estado": "PE",
    "Latitude": -8.029461,
    "Longitude": -34.924324,
    "Horário": "Seg-Sex: 07:00-17:00",
    "Telefone": null
  },
  {
    "Nome": "CS Francisco Pignatari",
    "Endereço": "Estrada do Arraial, 4155 Ao lado da linha Transporte Comp. Casa Amarela/Tacaruna - Perto do Merc. pub. de Casa Amarela, com a - Vizinho ao Colegio Dom Vital - Esq. Estrada do Arraial, rua Joaquim Nabuco",
    "Bairro": "Casa Amarela",
    "Cidade": "Recife",
    "Estado": "PE",
    "Latitude": -8.029461,
    "Longitude": -34.924324,
    "Horário": "Seg-Sex: 08:00-16:00",
    "Telefone": "+55 81 3355-1400"
  },
  {
    "Nome": "CS Dr. José Dustan",
    "Endereço": "Rua Santa Lúcia, 320",
    "Bairro": "Iputinga",
    "Cidade": "Recife",
    "Estado": "PE",
    "Latitude": -8.043441,
    "Longitude": -34.945797,
    "Horário": "Seg-Sex: 08:00-16:00",
    "Telefone": null
  },
  {
    "Nome": "Upinha Emocy Krause",
    "Endereço": "Rua Cantora Clara Nunes",
    "Bairro": "Torre",
    "Cidade": "Recife",
    "Estado": "PE",
    "Latitude": -8.054259,
    "Longitude": -34.917219,
    "Horário": "Seg: 07:00-13:00; Ter-Sex: 07:00-19:00",
    "Telefone": "+55 81 3301-1850"
  }
]